---

- name: SPIE-CLP Conference on Advanced Photonics 2025
  location: Hong Kong
  venue: The Hong Kong Polytechnic University
  latitude: 22.305
  longitude: 114.180
  date: '2025-11-14'
  etc: Invited oral presentation
  website: https://www.researching.cn/conference/AP2025
  type: international

- name: The 4th AI Photonics Technology Symposium (AIPS2025)
  location: Wuhan, China
  venue: China Optics Valley Convention & Exhibition Center
  latitude: 30.5928
  longitude: 114.3055
  date: '2025-05-15'
  etc: Invited oral presentation, Academic committee
  website: https://www.htcis.net/MeetingMain/Index/2025APTS
  type: international

- name: The 9th A3 Metamaterials Forum 2025
  location: Daejeon, South Korea
  venue: KAIST
  latitude: 36.3729
  longitude: 127.3608
  date: '2025-07-08'
  etc: Invited oral presentation
  website: https://a3meta.net/2025/main.htm
  type: international

- name: The 45th Photonics and Electromagnetics Research Symposium (PIERS-2024)
  location: Chengdu, China
  venue: Sichuan Jinjiang Hotel
  latitude: 30.6528
  longitude: 104.0668
  date: '2024-04-25'
  etc: Invited oral presentation x2
  website: http://www.piers.org/piers2024Chengdu/
  type: international

- name: The 9th International Conference on Surface Plasmon Photonics (SPP9)
  location: Copenhagen, Denmark
  venue: The Royal Danish Academy of Sciences and Letters
  latitude: 55.6867
  longitude: 12.5768
  date: "2019-06-23"
  etc: Poster
  website: https://spp11.tokyo
  type: international

- name: SPIE Optics and Photonics
  location: San Diego, USA
  venue: San Diego Convention Center
  latitude: 32.7067
  longitude: -117.1611
  date: "2022-08-21"
  etc: Oral presentation x4
  website: https://spie.org/conferences-and-exhibitions/optics-and-photonics
  type: international

- name: Materials Research Society (MRS) Spring Meeting
  location: Honolulu, USA
  venue: Hawaii Convention Center
  latitude: 21.2894
  longitude: -157.8412
  date: "2022-05-08"
  etc: Oral presentation
  website: https://www.mrs.org/meetings-events/spring-meetings-exhibits
  type: international

- name: Materials Research Society (MRS) Fall Meeting
  location: Boston, USA
  venue: Hynes Convention Center
  latitude: 42.3471
  longitude: -71.0875
  date: "2021-11-28"
  etc: Oral presentation *Best presentation award*
  website: https://www.mrs.org/meetings-events/fall-meetings-exhibits
  type: international

- name: The 12th International Conference on Metamaterials, Photonic Crystals, and Plasmonics (META'21)
  location: Warsaw, Poland
  venue: Warsaw University of Technology
  latitude: 52.2215
  longitude: 21.0070
  date: "2021-07-20"
  etc: Oral presentation
  website: https://metaconferences.org
  type: international

- name: A3 Metamaterials Forum
  location: Pohang, South Korea
  venue: Pohang University of Science and Technology (POSTECH)
  latitude: 36.0110
  longitude: 129.3235
  date: "2018-10-30"
  etc: Poster
  website: https://a3metamaterials.org
  type: international

- name: The 8th International Conference on Metamaterials, Photonic Crystals, and Plasmonics (META'17)
  location: Incheon/Seoul, South Korea
  venue: Songdo Convensia (Incheon)
  latitude: 37.3925
  longitude: 126.6400
  date: "2017-07-25"
  etc: Poster
  website: https://metaconferences.org
  type: international

- name: Department of Physics, Korea University
  location: Seoul, South Korea
  venue: Department of Physics
  latitude: 37.5892
  longitude: 127.0336
  date: "2024-02-01"
  website: https://physics.korea.ac.kr
  type: talk

- name: Department of Applied Physics and Science Education, Eindhoven University of Technology
  location: Eindhoven, Netherlands
  venue: Department of Applied Physics and Science Education
  latitude: 51.4484
  longitude: 5.4903
  date: "2023-12-01"
  website: https://www.tue.nl/en/our-university/departments/applied-physics-and-science-education/
  type: talk

- name: Department of Biomedical Engineering, Yonsei University
  location: Wonju, South Korea
  venue: Department of Biomedical Engineering
  latitude: 37.3014
  longitude: 127.9206
  date: "2023-08-01"
  website: https://bme.yonsei.ac.kr
  type: talk

- name: Department of Physics, Sungkyunkwan University
  location: Suwon, South Korea
  venue: Department of Physics
  latitude: 37.2945
  longitude: 126.9769
  date: "2023-06-01"
  website: https://physics.skku.edu
  type: talk

- name: Department of Physics, Dongguk University
  location: Seoul, South Korea
  venue: Department of Physics
  latitude: 37.5585
  longitude: 127.0002
  date: "2023-06-01"
  website: https://physics.dongguk.edu
  type: talk

- name: Department of Mechanical Engineering, Gwangju Institute of Science and Technology (GIST)
  location: Gwangju, South Korea
  venue: Department of Mechanical Engineering
  latitude: 35.2296
  longitude: 126.8425
  date: "2023-04-01"
  website: https://me.gist.ac.kr
  type: talk

- name: Department of Electronics and Information Engineering, Korea University - Sejong Campus
  location: Sejong, South Korea
  venue: Department of Electronics and Information Engineering
  latitude: 36.6017
  longitude: 127.2887
  date: "2024-04-01"
  website: https://kueie.korea.ac.kr
  type: talk

- name: Department of Information and Communication Engineering, Inha University
  location: Incheon, South Korea
  venue: Department of Information and Communication Engineering
  latitude: 37.4509
  longitude: 126.6534
  date: "2024-05-01"
  website: https://ice.inha.ac.kr
  type: talk

- name: 2024 Photonics Conference (PC2024)
  location: Pyeongchang, South Korea
  venue: Phoenix Pyeongchang
  latitude: 37.5812
  longitude: 128.3273
  date: "2024-11-27"
  etc: Invited oral presentation
  website: https://www.osk.or.kr/conference/event/
  type: domestic

- name: CISS-Global Webinar
  location: Lahore, Pakistan
  venue: Information Technology University (ITU)
  latitude: 31.4756 
  longitude: 74.3420
  date: "2024-12-12"
  etc: Invited lecture
  website: https://www.youtube.com/watch?v=VQIfsEPY4Ec
  type: talk

- name: International Symposium on Light-matter Interactions in Nano (ISLIN2024)
  location: Nanjing University of Science and Technology (NJUST), China
  venue: Online
  latitude: 32.0956
  longitude: 118.9125
  date: "2024-11-28"
  etc: Invited oral presentation
  website: https://english.njust.edu.cn
  type: international

- name: International Symposium on Metamaterials and Nanophotonics (ISMN2025)
  location: Suzhou, China
  venue: Suzhou City University
  latitude: 31.21 
  longitude: 120.59
  date: "2025-07-05"
  etc: Invited oral presentation
  website: https://www.szcu.edu.cn/2025/0620/c3880a74134/page.htm
  type: international

- name: Sustainable Photonics Conference
  location: Hangzhou, China
  venue: Hangzhou International Innovation Institute, Beihang University
  latitude: 30.18
  longitude: 120.21
  date: "2025-07-21"
  etc: Invited oral presentation, Co-Chair for Nanophotonics session
  website: https://www.optoin.org/SPC/
  type: international

- name: International Symposium on Nanophotonics, Acoustics and Electromagnetic Innovations - From Materials and Devices to Systems
  location: Nanjing, China
  venue: Nanjing University of Science and Technology (NJUST)
  latitude: 32.03
  longitude: 118.86
  date: "2025-07-03"
  etc: Invited oral presentation
  website: https://english.njust.edu.cn
  type: international

- name: The Korean Physical Society (KPS) Fall Meeting 2025 
  location: Gwangju, South Korea
  venue: Kimdaejung Convention Center
  latitude: 35.1595
  longitude: 126.8526
  date: "2025-10-22"
  etc: Invited oral presentation
  website: https://www.kps.or.kr/conference/event/
  type: domestic

- name: 2025 Photonics Conference (PC2025)
  location: Pyeongchang, South Korea
  venue: Phoenix Pyeongchang
  latitude: 37.5812
  longitude: 128.3273
  date: "2025-11-26"
  etc: Invited oral presentation
  website: https://www.osk.or.kr/conference/event/index.php?cfrid=134
  type: domestic

- name: 2025 Photonics Conference (PC2025)
  location: Pyeongchang, South Korea
  venue: Phoenix Pyeongchang
  latitude: 37.5812
  longitude: 128.3273
  date: "2025-11-26"
  etc: Poster presentation
  website: https://www.osk.or.kr/conference/event/index.php?cfrid=134
  type: domestic
  presenter: Minsung Kang

- name: The 15th Korea-Japan workshop on Digital Holography and Information Photonics (DHIP2025)
  location: Ishigaki, Japan
  venue: Ishigaki Civic Hall
  latitude: 24.3442
  longitude: 124.1536
  date: "2025-12-18"
  etc: Invited oral presentation
  website: https://sites.google.com/view/dhip2025
  type: international

- name: James Watt School of Engineering, University of Glasgow
  location: Glasgow, United Kingdom
  venue: James Watt School of Engineering
  latitude: 55.8720
  longitude: -4.2880
  date: "2026-01-19"
  website: https://www.gla.ac.uk/schools/engineering/
  type: talk

- name: OptoWin 2026
  location: Busan, South Korea
  venue: BEXCO
  latitude: 35.1796
  longitude: 129.0756
  date: "2026-02-04"
  etc: Poster presentation
  website: https://www.osk.or.kr/conference/event/index.php?cfrid=136
  type: domestic
  presenter: Minsung Kang

- name: SPIE Optics + Photonics 2026
  location: San Diego, USA
  venue: San Diego Convention Center
  latitude: 32.7067
  longitude: -117.1611
  date: "2026-08-17"
  etc: Invited oral presentation
  website: https://spie.org/conferences-and-exhibitions/optics-and-photonics
  type: international

- name: ASEAN Plus Photonics Symposium 2026
  location: Quy Nhon, Vietnam
  venue: International Centre for Science and Education (ICSE)
  latitude: 13.7824
  longitude: 109.2191
  date: "2026-04-08"
  etc: Invited oral presentation
  website: https://icisequynhon.com/conferences/2026/photonics-symposium/
  type: international

- name: The 3rd International Conference on AI Sensors and Transducers
  location: Jeju, South Korea
  venue: Jeju International Convention Center (JICC)
  latitude: 33.5125
  longitude: 126.4930
  date: "2026-08-02"
  etc: Invited oral presentation
  website: https://sciforum.net/event/AIS2026
  type: international

- name: The 48th Photonics and Electromagnetics Research Symposium (PIERS-2026)
  location: Suzhou, China
  venue: Suzhou Longemont Conference Center
  latitude: 31.3041
  longitude: 120.5842
  date: "2026-07-27"
  etc: Invited oral presentation
  website: https://suzhou2026.piers.org
  type: international