---

- name: The 45th Photonics and Electromagnetics Research Symposium (PIERS-2024)
  location: Chengdu, China
  venue: Sichuan Jinjiang Hotel
  latitude: 30.6528
  longitude: 104.0668
  date: '2024-04-25'
  etc: Invited oral presentation x2
  website: http://www.piers.org/piers2024Chengdu/
  type: international

- name: The 9th International Conference on Surface Plasmon Photonics (SPP9)
  location: Copenhagen, Denmark
  venue: The Royal Danish Academy of Sciences and Letters
  latitude: 55.6867
  longitude: 12.5768
  date: "2019-06-23"
  etc: Poster
  website: https://spp11.tokyo
  type: international

- name: SPIE Optics and Photonics
  location: San Diego, USA
  venue: San Diego Convention Center
  latitude: 32.7067
  longitude: -117.1611
  date: "2022-08-21"
  etc: Oral presentation x4
  website: https://spie.org/conferences-and-exhibitions/optics-and-photonics
  type: international

- name: Materials Research Society (MRS) Spring Meeting
  location: Honolulu, USA
  venue: Hawaii Convention Center
  latitude: 21.2894
  longitude: -157.8412
  date: "2022-05-08"
  etc: Oral presentation
  website: https://www.mrs.org/meetings-events/spring-meetings-exhibits
  type: international


- name: Materials Research Society (MRS) Fall Meeting
  location: Boston, USA
  venue: Hynes Convention Center
  latitude: 42.3471
  longitude: -71.0875
  date: "2021-11-28"
  etc: Oral presentation *Best presentation award*
  website: https://www.mrs.org/meetings-events/fall-meetings-exhibits
  type: international

- name: The 12th International Conference on Metamaterials, Photonic Crystals, and Plasmonics (META'21)
  location: Warsaw, Poland
  venue: Warsaw University of Technology
  latitude: 52.2215
  longitude: 21.0070
  date: "2021-07-20"
  etc: Oral presentation
  website: https://metaconferences.org
  type: international

- name: A3 Metamaterials Forum
  location: Pohang, South Korea
  venue: Pohang University of Science and Technology (POSTECH)
  latitude: 36.0110
  longitude: 129.3235
  date: "2018-10-30"
  etc: Poster
  website: https://a3metamaterials.org
  type: international

- name: The 8th International Conference on Metamaterials, Photonic Crystals, and Plasmonics (META'17)
  location: Incheon/Seoul, South Korea
  venue: Songdo Convensia (Incheon)
  latitude: 37.3925
  longitude: 126.6400
  date: "2017-07-25"
  etc: Poster
  website: https://metaconferences.org
  type: international

- name: Department of Physics, Korea University
  location: Seoul, South Korea
  venue: Department of Physics
  latitude: 37.5892
  longitude: 127.0336
  date: "2024-02-01"
  website: https://physics.korea.ac.kr
  type: talk

- name: Department of Applied Physics and Science Education, Eindhoven University of Technology
  location: Eindhoven, Netherlands
  venue: Department of Applied Physics and Science Education
  latitude: 51.4484
  longitude: 5.4903
  date: "2023-12-01"
  website: https://www.tue.nl/en/our-university/departments/applied-physics-and-science-education/
  type: talk

- name: Department of Biomedical Engineering, Yonsei University
  location: Wonju, South Korea
  venue: Department of Biomedical Engineering
  latitude: 37.3014
  longitude: 127.9206
  date: "2023-08-01"
  website: https://bme.yonsei.ac.kr
  type: talk

- name: Department of Physics, Sungkyunkwan University
  location: Suwon, South Korea
  venue: Department of Physics
  latitude: 37.2945
  longitude: 126.9769
  date: "2023-06-01"
  website: https://physics.skku.edu
  type: talk

- name: Department of Physics, Dongguk University
  location: Seoul, South Korea
  venue: Department of Physics
  latitude: 37.5585
  longitude: 127.0002
  date: "2023-06-01"
  website: https://physics.dongguk.edu
  type: talk


- name: Department of Mechanical Engineering, Gwangju Institute of Science and Technology (GIST)
  location: Gwangju, South Korea
  venue: Department of Mechanical Engineering
  latitude: 35.2296
  longitude: 126.8425
  date: "2023-04-01"
  website: https://me.gist.ac.kr
  type: talk

- name: Department of Electronics and Information Engineering, Korea University - Sejong Campus
  location: Sejong, South Korea
  venue: Department of Electronics and Information Engineering
  latitude: 36.6017
  longitude: 127.2887
  date: "2024-04-01"
  website: https://kueie.korea.ac.kr
  type: talk

- name: Department of Information and Communication Engineering, Inha University
  location: Incheon, South Korea
  venue: Department of Information and Communication Engineering
  latitude: 37.4509
  longitude: 126.6534
  date: "2024-05-01"
  website: https://ice.inha.ac.kr
  type: talk

- name: 2024 Photonics Conference (PC2024)
  location: Pyeongchang, South Korea
  venue: Phoenix Pyeongchang
  latitude: 37.5812
  longitude: 128.3273
  date: "2024-11-27"
  etc: Invited oral presentation
  website: https://www.osk.or.kr/conference/event/
  type: domestic